[
  {"name":"Madanapalle General Hospital","type":"hospital","address":"Near Bus Stand, Madanapalle","lat":13.5532,"lng":78.5034,"city":"Madanapalle","contact":"+91-90000-00001","available":true,"specializations":["general","emergency","medicine"]},
  {"name":"St. Marys Medical Centre","type":"medicalcenter","address":"Ring Road, Madanapalle","lat":13.5558,"lng":78.5089,"city":"Madanapalle","contact":"+91-90000-00002","available":true,"specializations":["outpatient","physiotherapy","pediatrics"]},
  {"name":"Green Valley Hospital","type":"hospital","address":"K.R. Colony, Madanapalle","lat":13.5479,"lng":78.5095,"city":"Madanapalle","contact":"+91-90000-00003","available":false,"specializations":["surgery","orthopedics"]},
  {"name":"Sree Krishna Clinic","type":"medicalcenter","address":"Bazar Street, Madanapalle","lat":13.5590,"lng":78.5012,"city":"Madanapalle","contact":"+91-90000-00004","available":true,"specializations":["general","family medicine"]},
  {"name":"Apollo Care (Madanapalle)","type":"hospital","address":"NH Road, Madanapalle","lat":13.5486,"lng":78.4958,"city":"Madanapalle","contact":"+91-90000-00005","available":true,"specializations":["cardiology","general","icu"]},
  {"name":"Sunrise Diagnostic Centre","type":"medicalcenter","address":"Opposite Market, Madanapalle","lat":13.5529,"lng":78.5121,"city":"Madanapalle","contact":"+91-90000-00006","available":false,"specializations":["laboratory","radiology"]},
  {"name":"Ramaiah Hospital","type":"hospital","address":"Hospital Road, Madanapalle","lat":13.5454,"lng":78.5068,"city":"Madanapalle","contact":"+91-90000-00007","available":true,"specializations":["obstetrics","gynecology"]},
  {"name":"LifeLine Medical Centre","type":"medicalcenter","address":"Station Road, Madanapalle","lat":13.5572,"lng":78.5060,"city":"Madanapalle","contact":"+91-90000-00008","available":true,"specializations":["onco-support","counseling"]},
  {"name":"Vijaya Hospitals","type":"hospital","address":"Main Junction, Madanapalle","lat":13.5511,"lng":78.4999,"city":"Madanapalle","contact":"+91-90000-00009","available":false,"specializations":["neurology","icu"]},
  {"name":"Govt. Area Hospital","type":"hospital","address":"Government Quarters, Madanapalle","lat":13.5583,"lng":78.5142,"city":"Madanapalle","contact":"+91-90000-00010","available":true,"specializations":["emergency","general"]},
  {"name":"CarePlus Clinic","type":"medicalcenter","address":"New Layout, Madanapalle","lat":13.5462,"lng":78.4991,"city":"Madanapalle","contact":"+91-90000-00011","available":true,"specializations":["dental","general"]},
  {"name":"City Heart Centre","type":"hospital","address":"Chest Clinic Road, Madanapalle","lat":13.5498,"lng":78.5102,"city":"Madanapalle","contact":"+91-90000-00012","available":false,"specializations":["cardiology"]},
  {"name":"Swasthya Wellness Centre","type":"medicalcenter","address":"College Road, Madanapalle","lat":13.5545,"lng":78.4952,"city":"Madanapalle","contact":"+91-90000-00013","available":true,"specializations":["physiotherapy","rehab"]},
  {"name":"Kumar MultiSpeciality Hospital","type":"hospital","address":"Industrial Area, Madanapalle","lat":13.5427,"lng":78.5044,"city":"Madanapalle","contact":"+91-90000-00014","available":true,"specializations":["surgery","orthopedics","icu"]},
  {"name":"Asha Medical Centre","type":"medicalcenter","address":"Old Town, Madanapalle","lat":13.5601,"lng":78.5086,"city":"Madanapalle","contact":"+91-90000-00015","available":false,"specializations":["general","paediatrics"]},
  {"name":"Shiva ENT Clinic","type":"medicalcenter","address":"Market Lane, Madanapalle","lat":13.5538,"lng":78.5077,"city":"Madanapalle","contact":"+91-90000-00016","available":true,"specializations":["ent"]},
  {"name":"Narayana Hospital - Madanapalle","type":"hospital","address":"Bangalore Road, Madanapalle","lat":13.5468,"lng":78.5129,"city":"Madanapalle","contact":"+91-90000-00017","available":true,"specializations":["general","cardiology"]},
  {"name":"Prime Diagnostics and Care","type":"medicalcenter","address":"Health Park, Madanapalle","lat":13.5489,"lng":78.5007,"city":"Madanapalle","contact":"+91-90000-00018","available":true,"specializations":["radiology","lab"]},
  {"name":"Sri Lakshmi Hospital","type":"hospital","address":"Temple Road, Madanapalle","lat":13.5566,"lng":78.5031,"city":"Madanapalle","contact":"+91-90000-00019","available":false,"specializations":["maternity","gynecology"]},
  {"name":"Veda Family Clinic","type":"medicalcenter","address":"School Street, Madanapalle","lat":13.5519,"lng":78.5070,"city":"Madanapalle","contact":"+91-90000-00020","available":true,"specializations":["general","family medicine"]}
]